City_ID,City,Lat,Lng,Max Temp,Humidity,Cloudiness,Wind Speed,Country,Date
0,walvis bay,-22.9575,14.5053,285.98,95,44,3.49,NA,1691731215
1,olonkinbyen,70.9221,-8.7187,279.43,98,98,1.33,SJ,1691731215
2,bethel,41.3712,-73.414,293.42,87,0,2.57,US,1691731131
3,saint-francois,46.4154,3.9054,288.53,94,0,1.03,FR,1691731215
4,grytviken,-54.2811,-36.5092,273.61,95,100,6.04,GS,1691731216
5,port elizabeth,-33.918,25.5701,293.2,62,0,2.06,ZA,1691731216
6,sandnessjoen,66.0217,12.6316,286.44,94,75,1.54,NO,1691731216
7,tokar,18.4254,37.729,307.0,39,83,11.56,SD,1691731216
8,laojunmiao,39.8333,97.7333,300.5,23,17,3.48,CN,1691731216
9,albany,42.6001,-73.9662,291.38,94,18,2.4,US,1691731210
10,dudinka,69.4058,86.1778,279.61,36,96,12.74,RU,1691731216
11,klyuchi,52.2667,79.1667,287.73,80,100,5.25,RU,1691731216
12,waitangi,-43.9535,-176.5597,283.05,91,100,1.34,NZ,1691731216
13,puerto natales,-51.7236,-72.4875,272.17,94,28,1.39,CL,1691731216
14,tolanaro,-25.0319,46.9987,291.95,60,77,3.19,MG,1691731216
15,colonia,50.9333,6.95,290.27,81,0,1.03,DE,1691730967
16,puerto baquerizo moreno,-0.9,-89.6,296.82,82,69,6.33,EC,1691731216
17,ulladulla,-35.35,150.4667,290.37,43,36,3.72,AU,1691731216
18,invercargill,-46.4,168.35,280.94,81,88,0.45,NZ,1691731216
19,punta del este,-34.9667,-54.95,287.57,96,100,1.79,UY,1691731216
20,afaahiti,-17.75,-149.2833,298.08,72,100,8.94,PF,1691731217
21,jamestown,42.097,-79.2353,290.92,99,0,3.09,US,1691731217
22,thunder bay,48.4001,-89.3168,286.14,82,0,2.06,CA,1691731009
23,mitu,1.1983,-70.1733,295.4,100,100,1.26,CO,1691731217
24,da nang,16.0678,108.2208,310.14,41,20,2.06,VN,1691731217
25,bredasdorp,-34.5322,20.0403,285.03,65,0,0.95,ZA,1691731217
26,punta cana,18.5818,-68.4043,302.02,84,75,5.14,DO,1691731186
27,port alfred,-33.5906,26.891,291.46,48,0,3.76,ZA,1691731217
28,port-aux-francais,-49.35,70.2167,276.27,80,45,17.07,TF,1691731217
29,iqaluit,63.7506,-68.5145,276.0,100,100,3.09,CA,1691731217
30,isafjordur,66.0755,-23.124,279.82,93,86,4.3,IS,1691731217
31,sitka,57.0531,-135.33,289.09,77,100,2.57,US,1691731217
32,adamstown,-25.066,-130.1015,291.32,58,60,10.95,PN,1691731186
33,yuma,32.7253,-114.6244,308.58,48,20,3.6,US,1691731217
34,luanda,-8.8368,13.2343,291.17,90,2,2.87,AO,1691731055
35,thompson,55.7435,-97.8558,285.24,82,75,1.54,CA,1691731032
36,queenstown,-31.8976,26.8753,281.69,50,0,2.66,ZA,1691731217
37,mhamid,29.82,-5.72,305.44,14,6,4.09,MA,1691731217
38,margaret river,-33.95,115.0667,288.75,65,31,3.75,AU,1691731217
39,mbaiki,3.8678,17.9892,294.4,99,100,0.5,CF,1691731218
40,kailua-kona,19.6406,-155.9956,300.13,84,75,5.14,US,1691730979
41,bilibino,68.0546,166.4372,291.49,48,93,3.34,RU,1691731218
42,slobozhans'ke,49.597,36.5262,293.66,88,78,4.05,UA,1691731218
43,udachny,66.4167,112.4,294.51,64,100,4.38,RU,1691731218
44,ust-nera,64.5667,143.2,297.34,32,69,0.8,RU,1691731218
45,ciudad de huajuapan de leon,17.8,-97.7667,291.13,78,100,2.05,MX,1691731218
46,yellowknife,62.456,-114.3525,288.44,82,100,1.03,CA,1691731218
47,blackmans bay,-43.0167,147.3167,287.22,73,100,2.8,AU,1691731218
48,broken hill,-31.95,141.4333,291.88,37,0,3.57,AU,1691731218
49,ribas do rio pardo,-20.4431,-53.7592,296.35,31,0,1.92,BR,1691731218
50,ancud,-41.8697,-73.8203,279.53,79,54,5.83,CL,1691731218
51,kodinsk,58.6881,99.1844,298.93,39,39,2.21,RU,1691731218
52,coquimbo,-29.9533,-71.3436,286.0,87,0,2.06,CL,1691730961
53,nova sintra,14.8667,-24.7167,295.53,75,43,5.35,CV,1691730976
54,kodiak,57.79,-152.4072,285.88,88,100,0.0,US,1691731219
55,vatutine,49.015,31.0621,291.94,68,80,5.53,UA,1691731219
56,amga,60.8953,131.9608,300.33,47,38,2.22,RU,1691731219
57,ulysses,37.5814,-101.3552,299.17,61,0,5.66,US,1691731219
58,inhambane,-23.865,35.3833,292.63,61,86,3.44,MZ,1691731219
59,ribeira grande,38.5167,-28.7,293.58,87,0,2.68,PT,1691731219
60,richards bay,-28.783,32.0377,288.22,83,2,4.01,ZA,1691731219
61,kerikeri,-35.2268,173.9474,286.43,63,5,0.89,NZ,1691731219
62,yangiobod,41.1192,70.0941,299.52,28,0,3.34,UZ,1691731219
63,petropavlovsk-kamchatsky,53.0452,158.6483,291.48,52,40,7.0,RU,1691731219
64,vernon,50.2581,-119.2691,293.35,55,84,2.57,CA,1691730923
65,hawaiian paradise park,19.5933,-154.9731,296.98,97,100,2.57,US,1691730923
66,shar,49.5886,81.0453,296.15,60,98,5.24,KZ,1691731219
67,sake,-1.5736,29.045,292.8,65,70,0.32,CD,1691731219
68,salahonda,2.1019,-78.7217,300.08,83,100,4.81,CO,1691731220
69,uturoa,-16.7333,-151.4333,298.46,67,96,9.16,PF,1691731220
70,road town,18.4167,-64.6167,302.2,79,14,8.36,VG,1691731220
71,lebu,-37.6167,-73.65,282.14,74,96,4.38,CL,1691730991
72,macapa,0.0389,-51.0664,298.14,94,20,1.54,BR,1691730990
73,college,64.8569,-147.8028,291.14,90,75,2.06,US,1691731220
74,constantia,44.1833,28.65,293.54,69,99,9.05,RO,1691731219
75,choyr,46.3611,108.3611,296.53,51,22,5.49,MN,1691731220
76,chonchi,-42.6128,-73.8092,277.66,94,67,2.27,CL,1691730998
77,aldinga beach,-35.2793,138.4604,289.37,71,99,1.81,AU,1691731220
78,longyearbyen,78.2186,15.6401,283.06,81,100,1.03,SJ,1691731171
79,happy valley-goose bay,53.3168,-60.3315,286.32,76,75,1.03,CA,1691731220
80,island harbour,50.724,-1.2758,292.0,94,100,2.24,GB,1691731220
81,vorgashor,67.5833,63.95,284.58,58,50,4.97,RU,1691731220
82,anadyr,64.75,177.4833,283.43,87,100,3.0,RU,1691731220
83,tromso,69.6496,18.957,288.92,82,0,4.12,NO,1691731220
84,kalmunai,7.4167,81.8167,304.89,55,97,4.36,LK,1691731220
85,westport,41.1415,-73.3579,294.17,88,0,1.54,US,1691731157
86,beaufort west,-32.3567,22.583,286.59,34,0,3.92,ZA,1691731221
87,port mathurin,-19.6833,63.4167,296.36,79,23,9.36,MU,1691731221
88,la ronge,55.1001,-105.2842,286.29,94,75,6.69,CA,1691731221
89,mosjoen,65.836,13.1908,286.44,88,75,0.0,NO,1691731221
90,bonthe,7.5264,-12.505,298.04,82,99,4.63,SL,1691731221
91,west island,-12.1568,96.8225,299.14,89,75,6.69,CC,1691731221
92,stanley,54.868,-1.6985,290.77,92,47,2.96,GB,1691731221
93,geraldton,-28.7667,114.6,292.38,72,97,3.6,AU,1691731221
94,trairi,-3.2778,-39.2689,297.07,91,35,3.79,BR,1691731221
95,el granada,37.5027,-122.4694,292.55,88,100,4.63,US,1691731221
96,suva,-18.1416,178.4415,293.86,83,75,3.6,FJ,1691731071
97,sao tome,0.3365,6.7273,297.78,83,98,2.92,ST,1691731222
98,lompoc,34.6391,-120.4579,292.6,88,100,1.34,US,1691731165
99,bontang,0.1333,117.5,302.36,68,100,3.93,ID,1691731222
100,coyhaique,-45.5752,-72.0662,275.12,75,75,1.03,CL,1691731222
101,breves,-1.6822,-50.4803,296.28,93,33,1.95,BR,1691731222
102,howrah,22.5892,88.3103,303.15,79,75,2.06,IN,1691731222
103,al burayqah,30.4062,19.5739,298.44,67,0,5.05,LY,1691731222
104,montmagny,48.9734,2.3469,293.14,82,0,2.57,FR,1691731222
105,vila franca do campo,37.7167,-25.4333,295.38,92,74,2.82,PT,1691731222
106,tamanrasset,22.785,5.5228,295.1,15,0,2.06,DZ,1691731222
107,saipan,15.1355,145.701,300.54,100,75,5.14,MP,1691731169
108,konongo,6.6167,-1.2167,293.3,99,98,0.65,GH,1691731222
109,papatowai,-46.5619,169.4708,280.12,86,99,2.32,NZ,1691731222
110,tommot,58.9564,126.2925,290.96,91,100,2.13,RU,1691731223
111,wanning,18.8003,110.3967,305.52,60,100,6.69,CN,1691731223
112,ushuaia,-54.8,-68.3,273.96,80,20,1.54,AR,1691731024
113,haiku-pauwela,20.9219,-156.3051,298.17,72,40,6.69,US,1691731223
114,nova vicosa,-17.8919,-39.3719,294.81,82,24,1.44,BR,1691731223
115,sao luiz gonzaga,-28.4083,-54.9608,290.86,97,100,0.3,BR,1691731223
116,iskateley,67.6803,53.1512,290.62,57,4,1.29,RU,1691731223
117,naze,28.3667,129.4833,301.66,82,100,0.19,JP,1691731223
118,ola,59.5833,151.2833,294.9,71,0,4.0,RU,1691731223
119,ferkessedougou,9.6,-5.2,294.71,98,100,2.21,CI,1691731223
120,hagere maryam,5.6333,38.2333,288.13,85,97,2.97,ET,1691731223
121,laguna,38.421,-121.4238,297.77,65,0,4.63,US,1691731223
122,avarua,-21.2078,-159.775,297.18,88,75,7.2,CK,1691731008
123,wailua homesteads,22.0669,-159.378,300.39,78,75,7.2,US,1691731223
124,whitehorse,60.7161,-135.0538,287.58,85,75,2.06,CA,1691731223
125,glogowek,50.3536,17.8641,286.32,64,61,1.59,PL,1691731223
126,rongelap,11.1635,166.8941,301.55,69,100,7.03,MH,1691731224
127,alesund,62.4723,6.1549,284.76,85,75,2.06,NO,1691731224
128,ciudad acuna,29.3232,-100.9522,309.31,32,0,7.2,MX,1691731224
129,kapa'a,22.0752,-159.319,301.14,78,75,7.2,US,1691731224
130,lijiang,26.8688,100.2207,298.8,57,100,1.08,CN,1691731224
131,edinburgh of the seven seas,-37.0676,-12.3116,284.75,73,97,11.0,SH,1691731224
132,christchurch,-43.5333,172.6333,280.88,69,86,5.14,NZ,1691731224
133,zhangatas,43.5667,69.75,299.63,37,0,3.85,KZ,1691731224
134,utrik,11.2278,169.8474,301.64,77,38,6.44,MH,1691731224
135,al muwayh,22.4333,41.7583,305.37,16,70,2.49,SA,1691731224
136,labrador city,52.9463,-66.9114,286.1,88,100,2.57,CA,1691731224
137,marka,1.7159,44.7717,298.6,76,62,8.58,SO,1691731224
138,goure,13.9835,10.2704,296.89,77,57,3.1,NE,1691731224
139,touros,-5.1989,-35.4608,295.98,88,22,5.8,BR,1691731224
140,tenno,39.9,139.9667,308.71,66,0,6.15,JP,1691731224
141,codrington,-38.2667,141.9667,287.77,68,100,4.51,AU,1691731225
142,tiksi,71.6872,128.8694,294.42,34,12,6.56,RU,1691731225
143,talnakh,69.4865,88.3972,279.38,83,100,7.56,RU,1691731225
144,asau,46.4333,26.4,289.66,64,66,1.53,RO,1691731225
145,puerto ayora,-0.7393,-90.3518,297.34,92,35,3.13,EC,1691731225
146,phan thiet,10.9333,108.1,305.56,60,2,6.26,VN,1691731225
147,targuist,34.9377,-4.3186,298.4,30,4,0.79,MA,1691731225
148,nouadhibou,20.931,-17.0347,295.14,88,40,9.26,MR,1691731225
149,grand-bassam,5.2118,-3.7388,297.13,87,92,1.97,CI,1691731225
150,cole harbour,44.6724,-63.4751,291.86,90,90,1.03,CA,1691731225
151,hotan,37.0997,79.9269,307.21,15,83,2.02,CN,1691731225
152,lagos,6.5833,3.75,297.33,91,98,1.78,NG,1691731225
153,ilhabela,-23.7781,-45.3581,293.78,87,8,2.42,BR,1691731225
154,bratsk,56.1325,101.6142,295.42,58,10,2.74,RU,1691731038
155,kluang,2.0251,103.3328,304.16,56,54,2.17,MY,1691731225
156,sao gabriel da cachoeira,-0.1303,-67.0892,295.5,99,100,0.55,BR,1691731026
157,sergeyevka,53.88,67.4158,289.06,59,99,6.12,KZ,1691731225
158,tazacorte,28.629,-17.9293,298.69,57,0,6.17,ES,1691731225
159,paris,48.8534,2.3488,293.21,87,0,1.54,FR,1691730979
160,yerofey pavlovich,53.9667,121.9667,293.0,75,100,1.28,RU,1691731226
161,hadibu,12.65,54.0333,299.79,76,83,9.72,YE,1691731226
162,antsiranana,-12.2787,49.2917,297.47,67,3,5.81,MG,1691731226
163,ginir,7.1333,40.7,290.19,70,66,4.44,ET,1691731226
164,tchintabaraden,15.8969,5.7985,301.69,61,100,4.24,NE,1691731226
165,bryne,58.7354,5.6477,285.69,98,20,1.54,NO,1691731226
166,qarauyl,48.9451,79.255,295.07,57,72,3.2,KZ,1691731226
167,mana,5.6592,-53.7767,298.16,90,15,3.14,GF,1691731226
168,cockburn town,21.4612,-71.1419,302.04,84,100,9.0,TC,1691731226
169,saint-pierre,-21.3393,55.4781,296.97,53,0,2.06,RE,1691731226
170,la passe,45.5549,-0.8967,291.28,92,76,1.66,FR,1691731226
171,hinton,53.4001,-117.5857,285.52,59,45,2.43,CA,1691731226
172,sterling,39.0062,-77.4286,295.59,82,0,0.45,US,1691731226
173,camana,-16.6228,-72.7111,290.38,89,87,3.28,PE,1691731226
174,ixtapa,20.7,-105.2,301.05,94,100,2.57,MX,1691731226
175,fortuna,40.5982,-124.1573,289.22,93,0,0.0,US,1691731226
176,ha'il,27.5219,41.6907,302.16,17,0,1.03,SA,1691731227
177,follonica,42.9263,10.7616,297.54,70,81,1.32,IT,1691731227
178,flying fish cove,-10.4217,105.6791,298.97,78,75,5.66,CX,1691730945
179,puerto aysen,-45.4,-72.7,273.99,98,93,1.88,CL,1691731227
180,kingston,17.997,-76.7936,299.4,96,37,1.08,JM,1691731092
181,berdyansk,46.7503,36.7944,297.03,78,76,4.81,UA,1691731227
182,hamilton,39.1834,-84.5333,294.8,90,0,1.54,US,1691730930
183,buka,40.8108,69.1986,306.24,16,0,1.92,UZ,1691731227
184,candido mendes,-1.4467,-45.7167,296.07,95,18,1.04,BR,1691731227
185,georgetown,5.4112,100.3354,305.11,66,40,5.14,MY,1691731227
186,mocimboa,-11.3167,40.35,294.55,73,0,4.66,MZ,1691731227
187,kone,-21.0595,164.8658,295.05,46,0,4.34,NC,1691731227
188,frontera,26.9333,-101.45,303.98,33,6,1.26,MX,1691731227
189,mount isa,-20.7333,139.5,301.02,21,4,2.06,AU,1691731227
190,valle del guamuez,0.4525,-76.9192,293.26,97,48,1.24,CO,1691731227
191,mirny,62.5353,113.9611,296.06,60,100,1.79,RU,1691731228
192,galliano,29.4422,-90.2992,301.15,83,0,0.0,US,1691731228
193,golere,16.2557,-14.1017,300.57,66,91,7.04,SN,1691731228
194,kattivakkam,13.2167,80.3167,305.2,72,100,0.99,IN,1691731228
195,dibba al-hisn,25.6196,56.2729,313.25,50,38,2.02,AE,1691731228
196,moundou,8.5667,16.0833,294.3,98,100,1.36,TD,1691731228
197,huilong,31.8111,121.655,304.63,57,9,1.45,CN,1691731228
198,saldanha,-33.0117,17.9442,288.18,53,6,6.44,ZA,1691731228
199,suoyarvi,62.0833,32.35,290.29,63,78,1.62,RU,1691731228
200,chibougamau,49.9168,-74.3659,287.94,94,100,2.06,CA,1691731228
201,plettenberg bay,-34.0527,23.3716,294.56,34,0,5.18,ZA,1691731228
202,tottori,35.5,134.2333,306.19,58,20,4.63,JP,1691731228
203,al kharj,24.155,47.3346,308.47,24,28,2.49,SA,1691731228
204,ashland,40.8167,-82.2665,292.68,100,68,3.47,US,1691730950
205,belmonte,-15.8631,-38.8828,294.82,84,76,1.76,BR,1691731228
206,carnarvon,-24.8667,113.6333,295.49,61,5,3.53,AU,1691731228
207,moose jaw,50.4001,-105.5344,288.63,70,75,2.93,CA,1691731228
208,warmbad,-28.45,18.7333,288.2,31,22,6.42,NA,1691731228
209,novodvinsk,64.4165,40.8122,295.2,70,47,0.1,RU,1691731228
210,mount pearl,47.5166,-52.7813,290.29,96,100,3.09,CA,1691731229
211,arvayheer,46.2639,102.775,294.23,40,1,1.37,MN,1691731229
212,sinabang,2.4803,96.3801,302.21,69,94,1.37,ID,1691731229
213,aasiaat,68.7098,-52.8699,276.81,97,100,3.38,GL,1691731229
214,los andes,-32.8337,-70.5983,281.64,57,85,2.01,CL,1691731229
215,kourou,5.1552,-52.6478,296.18,91,55,2.32,GF,1691731229
216,dakhla,23.6848,-15.958,295.38,78,61,6.05,EH,1691731229
217,hithadhoo,-0.6,73.0833,300.93,76,96,4.64,MV,1691731229
218,naracoorte,-36.9579,140.7383,286.31,67,100,4.56,AU,1691731229
219,makinsk,52.6292,70.4169,290.95,41,74,6.01,KZ,1691731229
220,gurupa,-1.405,-51.64,296.49,90,15,1.96,BR,1691731229
221,chinsali,-10.5414,32.0816,286.53,60,0,3.12,ZM,1691731229
222,tileagd,47.0667,22.2,287.9,69,26,0.14,RO,1691731229
223,al jawf,29.5,38.75,302.05,34,0,5.92,SA,1691731229
224,hancheng,32.5186,112.3522,306.49,53,80,3.24,CN,1691731229
225,kuanda,56.3161,116.0806,291.37,91,100,0.73,RU,1691731229
226,zheleznogorsk-ilimskiy,56.5768,104.1217,296.53,45,100,1.27,RU,1691731230
227,lincoln city,44.9582,-124.0179,290.85,80,0,0.45,US,1691731230
228,ingeniero guillermo n. juarez,-23.9,-61.85,295.42,55,11,2.58,AR,1691731230
229,copala,16.65,-98.9833,299.74,85,62,0.67,MX,1691731230
230,lichinga,-13.3128,35.2406,284.2,100,75,6.17,MZ,1691731230
231,cabedelo,-6.9811,-34.8339,295.52,80,69,4.84,BR,1691731230
232,tongliao,43.6125,122.2653,300.89,61,59,6.61,CN,1691731230
233,remire-montjoly,4.9167,-52.2667,296.17,100,100,0.51,GF,1691731230
234,giyani,-23.3025,30.7187,286.85,92,26,1.29,ZA,1691731230
235,nuuk,64.1835,-51.7216,281.49,87,75,5.14,GL,1691731190
236,kristiansund,63.1115,7.732,284.18,93,75,1.54,NO,1691731230
237,aguazul,5.1728,-72.5471,295.74,91,74,1.49,CO,1691731230
238,punta arenas,-53.15,-70.9167,274.33,74,10,4.97,CL,1691730971
239,maitum,6.0392,124.4986,302.93,66,87,3.14,PH,1691731230
240,tongchuanshi,35.0806,109.0897,301.77,66,95,1.67,CN,1691731230
241,taoudenni,22.6783,-3.9836,304.57,40,0,5.17,ML,1691731230
242,guerrero negro,27.9769,-114.0611,294.8,85,0,6.09,MX,1691731230
243,margate,51.3813,1.3862,291.87,80,30,0.89,GB,1691731230
244,saint-philippe,-21.3585,55.7679,296.92,76,1,2.45,RE,1691731231
245,enewetak,11.3474,162.3373,301.93,76,46,6.26,MH,1691731231
246,mcminnville,45.2101,-123.1987,293.82,69,0,2.57,US,1691731231
247,santa cruz,-17.8,-63.1667,297.85,83,0,6.69,BO,1691731231
248,griffith,41.5284,-87.4237,296.51,83,0,2.06,US,1691731231
249,dryden,49.7833,-92.7503,288.31,77,100,3.09,CA,1691731231
250,waynesboro,38.0685,-78.8895,293.28,91,0,0.0,US,1691730985
251,akureyri,65.6835,-18.0878,280.11,87,100,0.0,IS,1691731231
252,las navas del marques,40.6024,-4.3345,292.87,28,6,1.52,ES,1691731231
253,lihue,21.9789,-159.3672,300.73,73,75,7.2,US,1691731231
254,hermanus,-34.4187,19.2345,288.26,56,1,0.59,ZA,1691731231
255,dourados,-22.2211,-54.8056,296.52,36,0,3.51,BR,1691731045
256,okha,53.5739,142.9478,289.5,75,10,6.41,RU,1691731231
257,ghanzi,-21.5667,21.7833,281.85,90,4,3.78,BW,1691731231
258,keflavik,64.0049,-22.5624,288.1,87,75,1.03,IS,1691731231
259,talara,-4.5772,-81.2719,294.02,85,4,6.58,PE,1691731231
260,motueka,-41.1333,173.0167,280.63,80,24,1.43,NZ,1691731231
261,pechora,65.1472,57.2244,291.18,55,55,3.5,RU,1691731231
262,meadow lake,34.8014,-106.5436,295.82,49,96,5.37,US,1691731231
263,ailuk,10.2197,169.9797,301.59,77,71,6.02,MH,1691731232
264,bile,48.4952,39.0505,298.77,62,86,5.6,UA,1691731232
265,ilulissat,69.2167,-51.1,280.16,87,100,0.0,GL,1691731232
266,fada,9.5667,8.3,292.92,95,100,0.16,NG,1691731232
267,fort bragg,35.139,-79.006,299.9,81,100,2.06,US,1691731232
268,itoman,26.1247,127.6694,303.36,84,75,3.09,JP,1691731232
269,talwandi bhai,30.85,74.9333,306.3,56,60,0.99,IN,1691731232
270,nola,40.922,14.5329,296.83,77,2,1.09,IT,1691731232
271,klaksvik,62.2266,-6.589,285.66,97,99,7.92,FO,1691731232
272,cabo san lucas,22.8909,-109.9124,303.43,78,33,1.18,MX,1691731003
273,karaton,-6.3424,106.1045,305.53,46,20,1.23,ID,1691731232
274,bardai,11.65,7.2333,293.98,94,100,3.08,NG,1691731232
275,kosum phisai,16.2486,103.0674,305.38,59,100,5.7,TH,1691731232
276,pimentel,-6.8367,-79.9342,295.31,78,100,5.14,PE,1691731232
277,charata,-27.2144,-61.188,292.01,85,0,4.0,AR,1691731232
278,opladen,51.0667,7.0167,290.91,79,4,2.09,DE,1691731232
279,khandyga,62.6667,135.6,299.4,28,0,2.63,RU,1691731233
280,bikenibeu village,1.3673,173.1241,302.13,79,20,1.03,KI,1691731233
281,fale old settlement,-9.3852,-171.2468,301.64,76,54,6.32,TK,1691731233
282,dubbo,-32.25,148.6167,291.22,36,34,2.06,AU,1691731233
283,murzuq,25.9155,13.9184,298.09,35,0,3.85,LY,1691731233
284,luderitz,-26.6481,15.1594,285.42,92,80,4.79,NA,1691731233
285,terbanggi besar,-4.8667,105.2333,303.79,54,12,3.15,ID,1691731233
286,pauini,-7.7136,-66.9764,296.83,77,7,1.03,BR,1691731233
287,mount gambier,-37.8333,140.7667,285.28,84,100,4.17,AU,1691731233
288,emerald,-23.5333,148.1667,298.9,30,0,2.06,AU,1691731140
289,muisne,0.6,-80.0333,297.95,87,99,4.21,EC,1691731233
290,usinsk,65.9939,57.5281,290.05,52,57,3.42,RU,1691731233
291,plastun,44.7561,136.2939,289.83,97,100,3.14,RU,1691731233
292,tadine,-21.55,167.8833,292.56,57,0,7.18,NC,1691731233
293,beau vallon,-20.4189,57.6953,298.27,83,40,2.06,MU,1691731233
294,prineville,44.2999,-120.8345,295.54,43,100,2.57,US,1691731233
295,parkway,38.496,-121.4588,297.79,66,0,4.63,US,1691731233
296,lisala,2.15,21.5167,294.56,97,100,0.89,CD,1691731234
297,batibo,5.8358,9.8553,291.39,100,100,0.48,CM,1691731234
298,daru,-9.0763,143.2092,298.69,70,96,7.21,PG,1691731234
299,alice springs,-23.7,133.8833,298.9,14,0,2.57,AU,1691731234
300,san agustin de valle fertil,-30.6335,-67.4682,285.59,45,44,1.67,AR,1691731234
301,ndioum,16.5129,-14.6471,300.09,68,98,6.73,SN,1691731234
302,pershore,52.1116,-2.0759,292.0,90,81,2.24,GB,1691731234
303,kushtagi,15.7667,76.2,301.07,55,64,5.6,IN,1691731234
304,xilin hot,43.9667,116.0333,300.56,55,93,4.58,CN,1691731234
305,nueva esperanza,15.2667,-87.6,299.94,98,31,0.33,HN,1691731234
306,san sebastian de la gomera,28.0916,-17.1133,300.35,65,0,1.03,ES,1691731011
307,bamboo flat,11.7,92.7167,303.2,79,75,6.69,IN,1691731234
308,saint-joseph,-21.3667,55.6167,296.36,71,1,1.3,RE,1691731234
309,polyarnyy,69.1989,33.4478,290.87,72,9,5.13,RU,1691731234
310,tsiombe,-25.3,45.4833,291.36,59,81,4.96,MG,1691731234
311,bahia blanca,-38.7196,-62.2724,284.72,39,56,3.58,AR,1691731003
312,tobelo,1.7284,128.0095,301.99,69,56,3.15,ID,1691731228
313,toamasina,-18.1667,49.3833,296.15,78,20,3.09,MG,1691731234
314,vorkuta,67.5,64.0,284.82,57,47,5.1,RU,1691731234
315,ulsteinvik,62.3432,5.8487,284.76,87,100,1.79,NO,1691731234
316,kolonia town,6.964,158.206,305.21,66,75,4.63,FM,1691731235
317,kayangel,8.0823,134.7173,301.0,82,97,8.76,PW,1691731235
318,bulgan,48.8125,103.5347,293.2,55,30,1.71,MN,1691731235
319,port douglas,-16.4833,145.4667,295.59,67,94,5.49,AU,1691731235
320,arteche,12.2645,125.4048,304.32,67,88,1.37,PH,1691731235
321,urbano santos,-3.2078,-43.4036,295.45,96,41,1.04,BR,1691731235
322,mili,6.0815,171.735,301.62,75,21,4.74,MH,1691731235
323,sao joao da barra,-21.6403,-41.0511,294.84,87,0,7.45,BR,1691731235
324,constitucion,-35.3333,-72.4167,281.89,89,96,3.0,CL,1691731235
325,zeya,53.75,127.2667,301.47,39,59,2.91,RU,1691731235
326,quellon,-43.1167,-73.6167,278.29,93,75,5.66,CL,1691730981
327,hasaki,35.7333,140.8333,306.09,79,6,6.18,JP,1691731235
328,khovd,48.0056,91.6419,299.73,23,1,0.4,MN,1691731235
329,atafu village,-8.5421,-172.5159,301.25,76,86,4.24,TK,1691731235
330,luganville,-15.5333,167.1667,295.62,62,18,5.84,VU,1691731235
331,olyokminsk,60.3736,120.4264,299.81,43,100,3.06,RU,1691731235
332,brookings,44.3114,-96.7984,294.34,94,0,3.09,US,1691731222
333,tazovsky,67.4667,78.7,282.62,43,0,10.96,RU,1691731235
334,austin,30.2672,-97.7431,305.32,69,0,3.09,US,1691730617
335,midvagur,62.0511,-7.1939,285.61,94,75,6.17,FO,1691731235
336,naryshkino,52.9678,35.7268,290.27,93,100,4.31,RU,1691731235
337,katsuura,35.1333,140.3,301.5,76,11,7.17,JP,1691731235
338,sarangani,5.4033,125.4636,301.41,76,100,6.06,PH,1691731236
339,vysokiy,58.35,60.05,291.23,53,1,3.28,RU,1691731236
340,fort mcmurray,56.7268,-111.381,285.92,100,100,2.06,CA,1691731214
341,callao,-12.0667,-77.15,293.31,77,100,3.6,PE,1691731236
342,labuan,5.2767,115.2417,305.35,58,20,2.06,MY,1691731236
343,vylkove,45.4021,29.586,294.33,48,100,6.95,UA,1691731236
344,port lincoln,-34.7333,135.8667,287.51,59,99,1.66,AU,1691731236
345,panacan,9.2463,118.4082,303.02,71,71,4.01,PH,1691731236
346,sur,22.5667,59.5289,305.61,53,90,1.8,OM,1691731236
347,northam,51.0333,-4.2167,290.03,97,87,5.08,GB,1691731236
348,baranovichi,53.1327,26.0139,287.59,89,92,2.12,BY,1691731236
349,wynyard,-41.0,145.7167,285.95,74,100,4.94,AU,1691731020
350,las khorey,11.1595,48.1967,305.96,50,93,4.16,SO,1691731236
351,bereznehuvate,47.3078,32.8499,294.75,73,97,5.36,UA,1691731236
352,nadym,65.5333,72.5167,283.22,42,0,11.47,RU,1691731236
353,qaqortoq,60.7167,-46.0333,279.36,80,98,0.7,GL,1691731236
354,saint-denis,48.9167,2.3333,293.21,83,0,2.57,FR,1691731236
355,andratx,39.5755,2.4202,299.61,74,4,3.14,ES,1691730816
356,corinth,37.9407,22.9573,298.09,63,16,1.92,GR,1691731236
357,robore,-18.3333,-59.75,297.65,48,0,1.64,BO,1691731236
358,bull savanna,17.8868,-77.5902,299.42,82,94,2.0,JM,1691731236
359,yulinshi,38.2906,109.7494,294.12,72,100,9.96,CN,1691731237
360,kruisfontein,-34.0033,24.7314,291.97,35,0,5.91,ZA,1691731237
361,dogondoutchi,13.6393,4.0287,299.18,75,95,5.31,NE,1691731237
362,jeremie,18.65,-74.1167,301.04,79,85,1.76,HT,1691731237
363,gizo,-8.103,156.8419,298.24,89,100,8.62,SB,1691731237
364,pangody,65.85,74.4859,284.54,37,0,10.82,RU,1691731237
365,bodden town,19.2833,-81.25,303.11,87,4,4.27,KY,1691731237
366,arraial do cabo,-22.9661,-42.0278,294.16,91,9,10.37,BR,1691731183
367,patacamaya,-17.2333,-67.9167,278.49,54,0,0.82,BO,1691731237
368,kudat,6.8837,116.8477,305.11,62,20,5.36,MY,1691731237
369,derbent,42.0678,48.2899,303.45,49,0,3.55,RU,1691731237
370,santana,-0.0583,-51.1817,298.25,94,20,1.54,BR,1691731237
371,iguape,-24.7081,-47.5553,291.56,96,6,2.04,BR,1691731237
372,la'ie,21.6477,-157.9253,301.13,72,23,6.16,US,1691731237
373,bugiri,0.5714,33.7417,292.33,85,53,1.27,UG,1691731237
374,yuzhno-kurilsk,44.0306,145.8556,293.46,91,97,2.46,RU,1691731237
375,east london,-33.0153,27.9116,289.67,59,0,3.6,ZA,1691731237
376,dankalwa,11.7443,12.1867,294.59,90,100,2.98,NG,1691731237
377,itamaraca,-7.7478,-34.8256,296.18,79,52,4.78,BR,1691731237
378,fomeque,4.488,-73.8975,291.57,97,76,0.64,CO,1691731237
379,sinazongwe,-17.2614,27.4618,291.57,62,68,3.06,ZM,1691731237
380,sisimiut,66.9395,-53.6735,280.86,86,100,2.74,GL,1691731238
381,sanghar,26.0466,68.9481,305.99,52,2,8.8,PK,1691731238
382,maragogi,-9.0122,-35.2225,296.35,81,55,3.89,BR,1691731238
383,nantucket,41.2835,-70.0995,295.23,77,100,5.14,US,1691731001
384,yibin,28.7667,104.6238,307.63,60,100,0.66,CN,1691731238
385,makurazaki,31.2667,130.3167,300.84,78,26,2.71,JP,1691731238
386,st. john's,47.5649,-52.7093,290.75,96,100,3.09,CA,1691731173
387,shimoda,34.6667,138.95,304.35,67,0,6.92,JP,1691731082
388,kralendijk,12.15,-68.2667,302.14,84,50,6.17,BQ,1691731035
389,revda,56.801,59.9303,291.05,51,57,3.92,RU,1691731238
390,wellington,-41.2866,174.7756,282.96,76,19,1.54,NZ,1691731144
391,veraval,20.9,70.3667,300.48,81,100,6.93,IN,1691731238
392,tafuna,-14.3358,-170.72,302.12,84,75,4.12,AS,1691731238
393,beterou,9.1992,2.2586,295.4,97,100,1.47,BJ,1691731238
394,lata,40.1629,-8.3327,290.97,91,0,1.49,PT,1691731238
395,cidreira,-30.1811,-50.2056,290.66,97,86,5.9,BR,1691731238
396,chincha alta,-13.4099,-76.1323,292.48,86,26,1.4,PE,1691731238
397,ujae,8.9322,165.7642,301.46,72,8,5.47,MH,1691731238
398,portland,45.5234,-122.6762,294.51,67,0,3.6,US,1691731133
399,suntar,62.1444,117.6319,301.64,41,94,3.82,RU,1691731238
400,toro,4.6117,-76.0814,297.53,97,94,0.52,CO,1691731238
401,pala,9.3642,14.9046,293.88,98,100,1.94,TD,1691731239
402,north lakhimpur,27.2333,94.1167,302.2,89,75,1.54,IN,1691731239
403,george town,5.4112,100.3354,305.11,66,40,5.14,MY,1691731169
404,kabwe,-14.4469,28.4464,284.58,81,0,3.07,ZM,1691731239
405,freetown,8.484,-13.2299,297.79,88,100,4.59,SL,1691731239
406,rakops,-21.0167,24.3333,284.24,82,0,3.83,BW,1691731239
407,kangaba,11.9333,-8.4167,295.18,98,100,3.41,ML,1691731239
408,masina,-4.3836,15.3914,295.34,81,58,1.19,CD,1691731239
409,seguin,29.5688,-97.9647,303.66,77,0,5.14,US,1691731239
410,nemuro,43.3236,145.575,294.46,91,84,6.3,JP,1691731239
411,kwang binh,17.4833,106.6,306.84,52,100,4.6,VN,1691731239
412,knyaze-volkonskoye,48.4642,135.4567,297.34,69,100,3.75,RU,1691731239
413,peniche,39.3558,-9.3811,292.75,96,0,4.88,PT,1691731225
414,tarawa,1.419,172.984,302.2,79,20,1.03,KI,1691731239
415,khemisset,33.6667,-6.25,301.56,39,93,1.63,MA,1691731239
416,darwin,-12.4611,130.8418,305.14,25,0,5.66,AU,1691730990
417,south valley,35.0101,-106.6781,297.36,60,75,2.06,US,1691731239
418,porto novo,6.4965,2.6036,298.05,90,94,2.44,BJ,1691730961
419,vadso,70.0744,29.7487,290.64,77,0,3.6,NO,1691731239
420,sao jose da coroa grande,-8.8978,-35.1478,296.72,80,47,4.09,BR,1691731239
421,sabang,5.8933,95.3214,301.09,78,44,6.36,ID,1691731239
422,sodankyla,67.4167,26.6,288.91,75,18,2.75,FI,1691731239
423,beolgyo,34.8449,127.3429,302.42,69,26,4.23,KR,1691731239
424,hafnarfjordur,64.0671,-21.9377,288.08,67,75,2.06,IS,1691731239
425,vanimo,-2.6741,141.3028,301.9,76,99,4.07,PG,1691731240
426,naqadeh,36.9553,45.388,301.79,29,0,1.18,IR,1691731240
427,susuman,62.7833,148.1667,294.43,35,4,0.56,RU,1691731240
428,bazarak,35.3129,69.5152,298.33,27,0,4.17,AF,1691731240
429,ayabaca,-4.6398,-79.7149,281.7,82,3,2.29,PE,1691731240
430,zaragoza,41.6561,-0.8773,295.38,55,0,3.6,ES,1691731166
431,el calafate,-50.3408,-72.2768,271.75,68,28,3.48,AR,1691731241
432,yinzhu,35.8786,119.9753,303.79,56,82,4.17,CN,1691731241
433,kaa-khem,51.6833,94.7333,297.71,40,45,2.16,RU,1691731241
434,furtwangen,48.05,8.2,289.19,65,6,1.13,DE,1691731241
435,punta de bombon,-17.1717,-71.7931,290.52,86,99,2.03,PE,1691731241
436,reggane,26.7158,0.1714,305.66,16,0,4.79,DZ,1691731241
437,aykhal,66.0,111.5,293.08,67,100,2.58,RU,1691731241
438,conde,-7.2597,-34.9075,294.85,94,40,3.09,BR,1691731241
439,cohoes,42.7742,-73.7001,292.7,94,0,4.12,US,1691731242
440,isangel,-19.55,169.2667,295.21,53,75,3.09,VU,1691731242
441,micheweni,-4.9667,39.8333,297.57,77,87,5.12,TZ,1691731242
442,hilo,19.7297,-155.09,300.53,95,100,2.57,US,1691731242
443,gantang,26.92,119.6333,303.63,77,100,1.81,CN,1691731242
444,faya-largeau,17.9257,19.1043,304.92,50,7,2.62,TD,1691731242
445,santo antonio,-6.3106,-35.4789,293.45,92,6,4.29,BR,1691731242
446,amos,48.5669,-78.1162,284.52,98,87,3.26,CA,1691731242
447,greater sudbury,46.49,-80.99,285.4,91,7,2.46,CA,1691731054
448,gilgit,35.9221,74.3087,303.71,41,60,0.32,PK,1691731242
449,neryungri,56.6709,124.6491,294.41,62,100,5.28,RU,1691731242
450,arroyo,41.6096,-4.7969,294.88,71,0,2.06,ES,1691731242
451,tura,25.5198,90.2201,299.44,89,99,2.77,IN,1691731242
452,magadan,59.5667,150.8,294.56,66,0,3.19,RU,1691731242
453,ebaye,8.7748,167.7392,303.16,70,0,4.12,MH,1691731242
454,zardob,40.2183,47.7083,305.13,39,0,2.06,AZ,1691731242
455,buala,-8.145,159.5921,298.84,87,100,6.55,SB,1691731243
456,ratnagiri,16.9833,73.3,301.43,72,49,2.72,IN,1691731243
457,kangding,30.0513,101.9603,295.14,77,99,2.11,CN,1691731243
458,bereeda,11.8704,51.0579,306.08,45,58,5.36,SO,1691731243
459,timimoun,29.2639,0.231,304.36,22,0,8.23,DZ,1691731243
460,egilsstadir,65.2653,-14.3948,280.1,93,100,2.57,IS,1691731243
461,trinidad,-14.8333,-64.9,301.03,44,20,1.72,BO,1691731243
462,kyaukse,21.6,96.1333,302.15,70,75,3.09,MM,1691731243
463,horta,38.5333,-28.6333,293.16,87,0,2.68,PT,1691731243
464,dzhalagash,45.0833,64.6667,302.26,30,0,5.55,KZ,1691731243
465,juneau,58.3019,-134.4197,288.27,98,100,2.57,US,1691731243
466,villa regina,-39.1,-67.0667,282.58,22,23,14.13,AR,1691731243
467,khujner,23.7833,76.6,302.19,61,15,5.98,IN,1691731243
468,dabeiba,7.0017,-76.2672,296.29,98,96,1.04,CO,1691731243
469,emure-ekiti,7.4361,5.4593,294.01,98,100,1.0,NG,1691731243
470,wad medani,14.4012,33.5199,300.83,61,100,6.91,SD,1691731243
471,zouerate,22.7187,-12.4521,306.58,22,54,3.52,MR,1691731244
472,bayanhongor,46.7167,100.1167,292.69,41,2,2.54,MN,1691731244
473,frutigen,46.5878,7.6475,290.46,83,14,1.25,CH,1691731244
474,pariaman,-0.619,100.12,303.18,69,85,2.18,ID,1691731244
475,undurkhaan,47.3194,110.6556,295.76,57,64,6.34,MN,1691731244
476,soio,-6.1349,12.3689,293.59,92,1,3.45,AO,1691731244
477,hirara,24.8,125.2833,304.07,79,75,4.63,JP,1691731244
478,lauro de freitas,-12.8944,-38.3272,298.16,78,40,5.66,BR,1691731244
479,portage la prairie,49.9728,-98.2926,287.65,75,100,3.99,CA,1691731244
480,havre,49.5833,0.3333,291.37,100,100,2.57,FR,1691731244
481,zavetnoye,47.1194,43.8903,303.51,32,74,9.04,RU,1691731244
482,jinghong,21.991,100.7341,301.66,87,81,0.91,CN,1691731244
483,as sulayyil,20.4607,45.5779,305.29,9,27,1.51,SA,1691731244
484,huayucachi,-12.1333,-75.2333,284.46,74,95,0.2,PE,1691731244
485,jayapura,-2.5333,140.7,306.81,73,96,4.05,ID,1691731244
486,holualoa,19.6228,-155.9522,298.06,85,75,5.14,US,1691731244
487,opuwo,-18.0607,13.84,287.36,36,0,1.31,NA,1691731244
488,kidal,18.4411,1.4078,302.47,53,99,2.28,ML,1691731244
489,khilok,51.3674,110.4676,296.48,42,73,5.2,RU,1691731245
490,mushie,-3.0167,16.9,296.28,70,70,1.43,CD,1691731245
491,yatou,37.15,122.3833,302.04,55,79,8.18,CN,1691731245
492,mejit,10.2753,170.8646,301.22,80,67,6.96,MH,1691731245
493,nyala,12.05,24.8833,298.34,71,99,3.28,SD,1691731245
494,oneonta,42.4529,-75.0638,290.27,67,19,1.74,US,1691731245
495,page,36.9147,-111.4558,295.03,69,0,0.0,US,1691731245
496,annaba,36.9,7.7667,291.13,72,0,0.0,DZ,1691731245
497,hami,42.8,93.45,309.43,13,0,3.16,CN,1691731083
498,prince george,53.9166,-122.753,290.72,55,100,2.57,CA,1691731165
499,severnoye,56.3491,78.3619,285.81,92,99,3.73,RU,1691731245
500,nar'yan-mar,67.6713,53.087,290.67,57,4,1.32,RU,1691731245
501,fort st. john,56.2499,-120.8529,288.09,82,75,2.06,CA,1691731245
502,mwene-ditu,-7.0,23.45,292.58,41,16,2.16,CD,1691731245
503,myitkyina,25.3833,97.4,300.48,92,100,1.09,MM,1691731245
504,mumford,5.2618,-0.759,295.8,93,37,3.03,GH,1691731097
505,usogorsk,63.4106,48.6872,295.08,51,0,2.35,RU,1691731245
506,newman,37.3138,-121.0208,297.28,70,79,3.69,US,1691731245
507,boundiali,9.5217,-6.4869,294.25,99,100,1.69,CI,1691731245
508,abadan,30.3392,48.3043,313.62,20,65,2.54,IR,1691731245
509,dunedin,-45.8742,170.5036,280.82,57,96,0.45,NZ,1691731245
510,vilyuchinsk,52.9306,158.4028,292.3,75,66,3.29,RU,1691731246
511,dobrich,43.5667,27.8333,292.83,72,100,4.82,BG,1691731246
512,sao miguel do araguaia,-13.275,-50.1628,297.69,39,12,2.3,BR,1691731246
513,pisco,-13.7,-76.2167,293.18,77,100,3.09,PE,1691731246
514,puerto madero,14.7208,-92.4215,301.16,78,91,2.65,MX,1691731246
515,ta`u,-14.2336,-169.5144,300.66,78,79,7.03,AS,1691731246
516,al kharijah,25.4514,30.5464,301.69,34,0,6.85,EG,1691730977
517,karkira,36.9292,6.5856,298.11,48,7,0.58,DZ,1691731246
518,acapulco de juarez,16.8634,-99.8901,303.05,70,40,3.09,MX,1691731246
519,macia,-25.0269,33.0989,287.18,79,0,1.28,MZ,1691731246
520,kununurra,-15.7667,128.7333,305.14,22,74,2.06,AU,1691731246
521,woolgoolga,-30.1106,153.2007,292.08,58,0,4.63,AU,1691731246
522,creil,49.2567,2.4848,293.01,76,7,1.74,FR,1691731246
523,ruteng,-8.6136,120.4721,295.37,55,68,0.74,ID,1691731246
524,eyl,7.9803,49.8164,300.27,60,89,11.5,SO,1691731246
525,catumbela,-12.4314,13.5472,292.01,87,0,1.9,AO,1691731246
526,ghadamis,30.1337,9.5007,297.17,43,0,4.19,LY,1691731246
527,enriquillo,17.9,-71.2333,300.1,85,100,4.5,DO,1691730977
528,brisas de zicatela,15.8369,-97.0419,300.69,81,75,1.47,MX,1691731246
529,new norfolk,-42.7826,147.0587,287.87,68,100,3.36,AU,1691731246
530,laborde,-33.1532,-62.8566,284.52,67,2,3.53,AR,1691731247
531,chhatak,25.0333,91.6667,299.69,90,100,1.02,BD,1691731247
532,laela,-8.5667,32.05,286.7,66,9,1.22,TZ,1691731247
533,waddan,29.1614,16.139,296.06,72,0,2.26,LY,1691731247
534,korkuteli,37.065,30.1957,293.41,68,0,1.35,TR,1691731247
535,morehead city,34.7229,-76.726,300.93,87,0,2.57,US,1691731247
536,sidi khaled,34.387,4.9879,302.01,25,0,1.47,DZ,1691731247
537,floro,61.5996,5.0328,283.13,93,75,3.09,NO,1691731247
538,samarinda,-0.5,117.15,304.53,53,91,3.21,ID,1691731247
539,dhari,21.3333,71.0167,300.08,74,100,6.25,IN,1691731247
540,novyy urengoy,66.0833,76.6333,284.17,40,0,11.4,RU,1691731247
541,koundara,12.4833,-13.3,295.8,97,100,3.01,GN,1691731247
542,labytnangi,66.6572,66.4183,287.69,56,3,1.57,RU,1691731247
543,kushikino,31.7167,130.2667,305.85,73,26,2.58,JP,1691731247
544,zhangjiajie,29.1294,110.4783,307.47,50,27,1.41,CN,1691731247
545,senanga,-16.1167,23.2667,284.51,57,0,3.03,ZM,1691731247
546,netley,50.8763,-1.354,291.97,93,20,2.06,GB,1691731247
547,altamont,42.2068,-121.7372,295.06,53,0,5.14,US,1691731247
548,imbituba,-28.24,-48.6703,293.63,97,36,5.64,BR,1691731247
549,russkaya polyana,49.417,31.9201,291.8,73,99,5.2,UA,1691731247
550,sola,-13.8833,167.55,296.08,66,56,12.21,VU,1691731247
551,dhidhdhoo,6.8833,73.1,301.16,76,94,6.73,MV,1691731248
552,vredendal,-31.6683,18.5012,292.42,29,46,6.75,ZA,1691731248
553,mont-dore,-22.2833,166.5833,294.14,56,2,4.86,NC,1691731248
554,sougueur,35.1857,1.4961,295.22,35,0,2.06,DZ,1691731248
555,nishinoomote,30.7333,131.0,302.46,94,75,1.54,JP,1691731248
556,eirunepe,-6.6603,-69.8736,296.37,83,12,0.54,BR,1691731248
557,tocopilla,-22.092,-70.1979,290.9,72,31,2.23,CL,1691731248
